[ {
    "img":"../images/navbarImg.jpeg",
    "name":"Pokemon Center",
    "location":"Japan",
    "suburb":"Manukau",
    "hours":"9AM - 5PM",
    "website":"www.url.com"
},
{
    "img":"../images/navbarImg.jpeg",
    "name":"Some clinic",
    "location":"Auckland",
    "suburb":"New Market",
    "hours":"9AM - 5PM",
    "website":"www.url.com"
},
{
    "img":"../images/navbarImg.jpeg",
    "name":"ezyvet",
    "location":"Auckland",
    "suburb":"Manukau",
    "hours":"9AM - 5PM",
    "website":"www.url.com"
},
{
    "img":"../images/navbarImg.jpeg",
    "name":"Some clinic",
    "location":"Auckland",
    "suburb":"Manukau",
    "hours":"9AM - 5PM",
    "website":"www.url.com"
},
{
    "img":"../images/navbarImg.jpeg",
    "name":"Some clinic",
    "location":"Auckland",
    "suburb":"Manukau",
    "hours":"9AM - 5PM",
    "website":"www.url.com"
},
{
    "img":"../images/navbarImg.jpeg",
    "name":"Some clinic",
    "location":"Auckland",
    "suburb":"Manukau",
    "hours":"9AM - 5PM",
    "website":"www.url.com"
},
{
    "img":"../images/navbarImg.jpeg",
    "name":"Some clinic",
    "location":"Auckland",
    "suburb":"Manukau",
    "hours":"9AM - 5PM",
    "website":"www.url.com"
},
{
    "img":"../images/navbarImg.jpeg",
    "name":"Some clinic",
    "location":"Auckland",
    "suburb":"Manukau",
    "hours":"9AM - 5PM",
    "website":"www.url.com"
},
{
    "img":"../images/navbarImg.jpeg",
    "name":"Some clinic",
    "location":"Auckland",
    "suburb":"Manukau",
    "hours":"9AM - 5PM",
    "website":"www.url.com"
},
{
    "img":"../images/navbarImg.jpeg",
    "name":"Some clinic",
    "location":"Auckland",
    "suburb":"Manukau",
    "hours":"9AM - 5PM",
    "website":"www.url.com"
},
{
    "img":"../images/navbarImg.jpeg",
    "name":"Some clinic",
    "location":"Auckland",
    "suburb":"Manukau",
    "hours":"9AM - 5PM",
    "website":"www.url.com"
},
{
    "img":"../images/navbarImg.jpeg",
    "name":"Some clinic",
    "location":"Auckland",
    "suburb":"Manukau",
    "hours":"9AM - 5PM",
    "website":"www.url.com"
},
{
    "img":"../images/navbarImg.jpeg",
    "name":"Some clinic",
    "location":"Auckland",
    "suburb":"Manukau",
    "hours":"9AM - 5PM",
    "website":"www.url.com"
}
]